[{"id":"p4","title":"Caribbean Beach","image":{"src":"caribbean-beach.jpg","alt":"Pristine white sand and turquoise waters of a Caribbean beach."},"lat":18.2208,"lon":-66.5901},{"id":"p1","title":"Forest Waterfall","image":{"src":"forest-waterfall.jpg","alt":"A tranquil forest with a cascading waterfall amidst greenery."},"lat":44.5588,"lon":-80.344},{"id":"p14","title":"Kerala Backwaters","image":{"src":"kerala-backwaters.jpg","alt":"Tranquil waters and lush greenery of the Kerala backwaters."},"lat":9.4981,"lon":76.3388},{"id":"p15","title":"African Savanna","image":{"src":"african-savanna.jpg","alt":"Wild animals roaming freely in the vast landscapes of the African savanna."},"lat":-2.153,"lon":34.6857},{"id":"p13","title":"Taj Mahal","image":{"src":"taj-mahal.jpg","alt":"The iconic Taj Mahal reflecting in its surrounding waters during sunrise."},"lat":27.1751,"lon":78.0421},{"id":"p7","title":"Northern Lights","image":{"src":"northern-lights.jpg","alt":"Dazzling display of the Northern Lights in a starry sky."},"lat":64.9631,"lon":-19.0208},{"id":"p2","title":"Sahara Desert Dunes","image":{"src":"desert-dunes.jpg","alt":"Golden dunes stretching to the horizon in the Sahara Desert."},"lat":25,"lon":0},{"id":"p10","title":"Parisian Streets","image":{"src":"parisian-streets.jpg","alt":"Charming streets of Paris with historic buildings and cafes."},"lat":48.8566,"lon":2.3522},{"id":"p12","title":"Venetian Canals","image":{"src":"venetian-canals.jpg","alt":"Glistening waters of the Venetian canals as gondolas glide by at sunset."},"lat":45.4408,"lon":12.3155},{"id":"p5","title":"Ancient Grecian Ruins","image":{"src":"ruins.jpg","alt":"Historic ruins standing tall against the backdrop of the Grecian sky."},"lat":37.9715,"lon":23.7257}]